[
  {
    "location_type": "atm",
    "city": "Ухта",
    "address": "Пр-т Ленина, д. 1, 1 этаж, офис филиала Банка",
    "latitude": 63.5617,
    "longitude": 53.6844,
    "hours": "Ежедневно с 8-00 до 20-00 часов",
    "phone": "",
    "source_url": "https://www.sevnb.ru/atms",
    "fetched_at": "2026-04-18T16:50:40+00:00"
  },
  {
    "location_type": "atm",
    "city": "Ухта",
    "address": "Пр-т Ленина, д. 22, опт-маркет «Союз»",
    "latitude": 63.566,
    "longitude": 53.6698,
    "hours": "Ежедневно с 8-00 до 22-00 часов",
    "phone": "",
    "source_url": "https://www.sevnb.ru/atms",
    "fetched_at": "2026-04-18T16:50:40+00:00"
  },
  {
    "location_type": "atm",
    "city": "Ухта",
    "address": "пр-т Ленина, д. 57, Ателье \"Молодежная мода\"",
    "latitude": 63.5696,
    "longitude": 53.653,
    "hours": "с 10-00 до 21-00 ежедневно",
    "phone": "",
    "source_url": "https://www.sevnb.ru/atms",
    "fetched_at": "2026-04-18T16:50:40+00:00"
  },
  {
    "location_type": "atm",
    "city": "Ухта",
    "address": "ул. Бушуева, д. 16, супермаркет «БЕРЁЗКА»",
    "latitude": 63.5658,
    "longitude": 53.6986,
    "hours": "с 8-00 до 22-00",
    "phone": "",
    "source_url": "https://www.sevnb.ru/atms",
    "fetched_at": "2026-04-18T16:50:40+00:00"
  },
  {
    "location_type": "atm",
    "city": "Ухта",
    "address": "Пионергорский пр-д, д. 3, ТЦ \"Бенилюкс\", магазин «Магнит»",
    "latitude": 63.5706,
    "longitude": 53.6753,
    "hours": "с 9-00 до 21-00",
    "phone": "",
    "source_url": "https://www.sevnb.ru/atms",
    "fetched_at": "2026-04-18T16:50:40+00:00"
  },
  {
    "location_type": "atm",
    "city": "Ухта",
    "address": "пр-т Ленина, д. 4, гостиница «Тиман»",
    "latitude": 63.5629,
    "longitude": 53.6806,
    "hours": "круглосуточно",
    "phone": "",
    "source_url": "https://www.sevnb.ru/atms",
    "fetched_at": "2026-04-18T16:50:40+00:00"
  },
  {
    "location_type": "office",
    "city": "Ухта",
    "address": "пр.Ленина, 1",
    "latitude": 63.5617,
    "longitude": 53.6836,
    "hours": "в будние дни с 10 до 18-30, в субботу с 10 до 13-30. Выходной: воскресенье",
    "phone": "(8216) 74-72-10",
    "source_url": "https://www.sevnb.ru/offices",
    "fetched_at": "2026-04-18T16:50:40+00:00"
  },
  {
    "location_type": "atm",
    "city": "Сыктывкар",
    "address": "ул. Первомайская, 68. Офис Банка",
    "latitude": 61.6677,
    "longitude": 50.8272,
    "hours": "Круглосуточно",
    "phone": "",
    "source_url": "https://www.sevnb.ru/atms",
    "fetched_at": "2026-04-18T16:50:40+00:00"
  },
  {
    "location_type": "atm",
    "city": "Сыктывкар",
    "address": "ул. Малышева, 1. Торговый комплекс \"Народный рынок\" (цокольный этаж)",
    "latitude": 61.6889,
    "longitude": 50.8214,
    "hours": "Ежедневно с 09-00 до 19-00",
    "phone": "",
    "source_url": "https://www.sevnb.ru/atms",
    "fetched_at": "2026-04-18T16:50:40+00:00"
  },
  {
    "location_type": "atm",
    "city": "Сыктывкар",
    "address": "ул. Коммунистическая, 52. Центр торговли \"Аврора\"",
    "latitude": 61.6619,
    "longitude": 50.8059,
    "hours": "ПН - СБ: с 10 до 20 часов, ВС:с 10 до 19 часов",
    "phone": "",
    "source_url": "https://www.sevnb.ru/atms",
    "fetched_at": "2026-04-18T16:50:40+00:00"
  },
  {
    "location_type": "atm",
    "city": "Сыктывкар",
    "address": "ул. Колхозная, д.20, магазин «Магнит»",
    "latitude": 61.6607,
    "longitude": 50.8465,
    "hours": "Ежедневно с 8 до 22.00 часов",
    "phone": "",
    "source_url": "https://www.sevnb.ru/atms",
    "fetched_at": "2026-04-18T16:50:40+00:00"
  },
  {
    "location_type": "atm",
    "city": "Сыктывкар",
    "address": "ул.Куратова, 73/6 Торговый комплекс \"Рублик\"",
    "latitude": 61.6624,
    "longitude": 50.8314,
    "hours": "Ежедневно с 9 до 20 часов, санитарный день: каждый второй понедельник месяца, до 15 часов",
    "phone": "",
    "source_url": "https://www.sevnb.ru/atms",
    "fetched_at": "2026-04-18T16:50:40+00:00"
  },
  {
    "location_type": "atm",
    "city": "Сыктывкар",
    "address": "Автовокзал ТК \"Центральный рынок\" (ул. Морозова, д.202)",
    "latitude": 61.6389,
    "longitude": 50.8195,
    "hours": "Ежедневно с 9.00 до 20.00 часов",
    "phone": "",
    "source_url": "https://www.sevnb.ru/atms",
    "fetched_at": "2026-04-18T16:50:40+00:00"
  },
  {
    "location_type": "atm",
    "city": "Сыктывкар",
    "address": "ул. Коммунистическая, д. 62. Доп. офис \"Северный Народный Банк\" (АО)",
    "latitude": 61.6607,
    "longitude": 50.8016,
    "hours": "Круглосуточно",
    "phone": "",
    "source_url": "https://www.sevnb.ru/atms",
    "fetched_at": "2026-04-18T16:50:40+00:00"
  },
  {
    "location_type": "atm",
    "city": "Сыктывкар",
    "address": "ул. Интернациональная, 147 (ЦУМ)",
    "latitude": 61.6678,
    "longitude": 50.8329,
    "hours": "с 10-00 до 19-00 по будням, в субботу с 10-00 до 18-00, в воскресенье с 10-00 до 17-00",
    "phone": "",
    "source_url": "https://www.sevnb.ru/atms",
    "fetched_at": "2026-04-18T16:50:40+00:00"
  },
  {
    "location_type": "atm",
    "city": "Сыктывкар",
    "address": "ул. Морозова, 2. Магазин \"Пятерочка\"",
    "latitude": 61.6589,
    "longitude": 50.7932,
    "hours": "круглосуточно",
    "phone": "",
    "source_url": "https://www.sevnb.ru/atms",
    "fetched_at": "2026-04-18T16:50:40+00:00"
  },
  {
    "location_type": "atm",
    "city": "Сыктывкар",
    "address": "ул. Мира, 22/1. Магазин \"Пятерочка\"",
    "latitude": 61.7958,
    "longitude": 50.7501,
    "hours": "с 8-00 до 22-00",
    "phone": "",
    "source_url": "https://www.sevnb.ru/atms",
    "fetched_at": "2026-04-18T16:50:40+00:00"
  },
  {
    "location_type": "atm",
    "city": "Сыктывкар",
    "address": "Покровский бульвар, 1 (Магазин «Магнит Косметик»)",
    "latitude": 61.697,
    "longitude": 50.8141,
    "hours": "с 9:00-20:00",
    "phone": "",
    "source_url": "https://www.sevnb.ru/atms",
    "fetched_at": "2026-04-18T16:50:40+00:00"
  },
  {
    "location_type": "atm",
    "city": "Сыктывкар",
    "address": "ул.Коммунистическая, 18 ТЦ Детский мир",
    "latitude": 61.6678,
    "longitude": 50.8302,
    "hours": "понедельник-пятница с 10:00 до 19:00 суббота с 10:00 до 18:00 воскресенье с 10:00 до 17:00",
    "phone": "",
    "source_url": "https://www.sevnb.ru/atms",
    "fetched_at": "2026-04-18T16:50:40+00:00"
  },
  {
    "location_type": "atm",
    "city": "Сыктывкар",
    "address": "ул.Петрозаводская, 38 (магазин «Пятерочка»)",
    "latitude": 61.6935,
    "longitude": 50.8183,
    "hours": "круглосуточно",
    "phone": "",
    "source_url": "https://www.sevnb.ru/atms",
    "fetched_at": "2026-04-18T16:50:40+00:00"
  },
  {
    "location_type": "atm",
    "city": "Сыктывкар",
    "address": "ул. Коммунистическая, 7, Магазин \"Пятерочка\"",
    "latitude": 61.6695,
    "longitude": 50.8402,
    "hours": "с 8-00 до 22-00",
    "phone": "",
    "source_url": "https://www.sevnb.ru/atms",
    "fetched_at": "2026-04-18T16:50:40+00:00"
  },
  {
    "location_type": "atm",
    "city": "Сыктывкар",
    "address": "ул.Свободы, 35/75. Магазин \"Пятерочка\"",
    "latitude": 61.6766,
    "longitude": 50.8263,
    "hours": "Режим работы: с 8:00 до 22:00",
    "phone": "",
    "source_url": "https://www.sevnb.ru/atms",
    "fetched_at": "2026-04-18T16:50:40+00:00"
  },
  {
    "location_type": "atm",
    "city": "Сыктывкар",
    "address": "пр-т Бумажников, 45 (ТЦ \"Меркурий\")",
    "latitude": 61.7855,
    "longitude": 50.7464,
    "hours": "пн.-пт с 10.00 до 19.00,\nсб, вскр. с 10.00 до 17.00 часов",
    "phone": "",
    "source_url": "https://www.sevnb.ru/atms",
    "fetched_at": "2026-04-18T16:50:40+00:00"
  },
  {
    "location_type": "atm",
    "city": "Сыктывкар",
    "address": "ул. Карла Маркса, 108 (магазин \"Пятерочка\")",
    "latitude": 61.6837,
    "longitude": 50.8133,
    "hours": "Ежедневно с 08.00 до 22.00",
    "phone": "",
    "source_url": "https://www.sevnb.ru/atms",
    "fetched_at": "2026-04-18T16:50:40+00:00"
  },
  {
    "location_type": "office",
    "city": "Сыктывкар",
    "address": "ул. Первомайская, 68",
    "latitude": 61.6677,
    "longitude": 50.8272,
    "hours": "Обслуживание физических лиц:\nПо будням:\nс 9.00 до 18.00, без перерыва\nСуббота:\nc 10.00 до 15.00, без перерыва\nВоскресенье: выходной\nОбслуживание юридических лиц и индивидуальных предпринимателей по приему денежных средств на расчетные счета:\nПо будням: с 09.00 до 17.30, без перерыва\nВыходной: суббота, воскресенье",
    "phone": "(8212) 40-97-26, консультации по вкладам,переводам, приему платежей (8212) 40-97-10 - Управление по работе с клиентами (будние дни с 8:30 до 16:45, перерыв на обед с 12:30 до 13:30)",
    "source_url": "https://www.sevnb.ru/offices",
    "fetched_at": "2026-04-18T16:50:40+00:00"
  },
  {
    "location_type": "office",
    "city": "Сыктывкар",
    "address": "ул.Коммунистическая, 62",
    "latitude": 61.6605,
    "longitude": 50.8009,
    "hours": "Обслуживание физических лиц:\nПо будням: с 10.30 до 18.30, без перерыва\nВыходной: суббота, воскресенье\nОбслуживание юридических лиц и индивидуальных предпринимателей по приему денежных средств на расчетные счета:\nПо будням: с 10.30 до 17.30, без перерыва\nВыходной: суббота, воскресенье",
    "phone": "(8212) 31-07-50, консультации по вкладам,переводам, приему платежей (8212) 40-97-10 - Управление по работе с клиентами (будние дни с 8:30 до 16:45, перерыв на обед с 12:30 до 13:30)",
    "source_url": "https://www.sevnb.ru/offices",
    "fetched_at": "2026-04-18T16:50:40+00:00"
  },
  {
    "location_type": "office",
    "city": "Сыктывкар",
    "address": "пр.Бумажников, 53в",
    "latitude": 61.7841,
    "longitude": 50.7471,
    "hours": "Обслуживание физических лиц:\nпо будням с 10.30 до 18.30 (без перерыва)\nВыходной: суббота, воскресенье\nОбслуживание юридических лиц и индивидуальных предпринимателей по приему денежных средств\nпо будням с 10.30 до 17.30 (без перерыва)\nВыходной:суббота, воскресенье",
    "phone": "(8212) 63-75-87, консультации по вкладам,переводам, приему платежей - (8212) 40-97-10 - Управление по работе с клиентами (будние дни с 8:30 до 16:45, перерыв на обед с 12:30 до 13:30)",
    "source_url": "https://www.sevnb.ru/offices",
    "fetched_at": "2026-04-18T16:50:40+00:00"
  },
  {
    "location_type": "atm",
    "city": "Усинск",
    "address": "Торговый центр «Норд Хаус» ул. Парковая, д.8Б",
    "latitude": 65.9906,
    "longitude": 57.5452,
    "hours": "Понедельник-суббота с 10:00 до 20:00,\nвоскресенье с 10:00 до 18:00",
    "phone": "",
    "source_url": "https://www.sevnb.ru/atms",
    "fetched_at": "2026-04-18T16:50:40+00:00"
  },
  {
    "location_type": "atm",
    "city": "Усинск",
    "address": "Офис филиала Банка ул.60 лет Октября, д.12",
    "latitude": 65.9874,
    "longitude": 57.5601,
    "hours": "Круглосуточно",
    "phone": "",
    "source_url": "https://www.sevnb.ru/atms",
    "fetched_at": "2026-04-18T16:50:40+00:00"
  },
  {
    "location_type": "atm",
    "city": "Усинск",
    "address": "Торговый дом «Лапландия» ул. Приполярная, д.8",
    "latitude": 65.9976,
    "longitude": 57.5518,
    "hours": "с 08:00 до 22:00",
    "phone": "",
    "source_url": "https://www.sevnb.ru/atms",
    "fetched_at": "2026-04-18T16:50:40+00:00"
  },
  {
    "location_type": "office",
    "city": "Усинск",
    "address": "ул.60 лет Октября, 12",
    "latitude": 65.9874,
    "longitude": 57.5599,
    "hours": "с понедельника по четверг: с 08-30 до 16-45;\nв пятницу: с 08-30 до 16-30;\nперерыв с 13-00 до 14-00;\nвыходной: суббота, воскресенье",
    "phone": "(82144) 4-55-62",
    "source_url": "https://www.sevnb.ru/offices",
    "fetched_at": "2026-04-18T16:50:40+00:00"
  },
  {
    "location_type": "atm",
    "city": "Москва",
    "address": "Петровский бульвар, д. 11, Ст. метро Чеховская/Трубная (офис филиала Банка)",
    "latitude": 55.7683,
    "longitude": 37.6152,
    "hours": "с 09.00-19.00, суббота и воскресенье - выходные",
    "phone": "",
    "source_url": "https://www.sevnb.ru/atms",
    "fetched_at": "2026-04-18T16:50:40+00:00"
  },
  {
    "location_type": "office",
    "city": "Москва",
    "address": "Петровский бульвар, 11",
    "latitude": 55.7683,
    "longitude": 37.615,
    "hours": "Режим работы:\nпонедельник-четверг с 9:30 до 16:00 (обед с 12:30 до 13:15),\nпятница с 09:30 до 15:00 (обед с 12:30 до 13:30),\nв предпразднчные дни до 15:00\nОбслуживания по системе «Золотая Корона» понедельник-пятница с 9.30 до 12.30",
    "phone": "(495) 694-46-10 (499) 272-69-72",
    "source_url": "https://www.sevnb.ru/offices",
    "fetched_at": "2026-04-18T16:50:40+00:00"
  },
  {
    "location_type": "atm",
    "city": "Сосногорск",
    "address": "ул. Горького, д.20 (магазин \"Пятёрочка\")",
    "latitude": 63.6015,
    "longitude": 53.873,
    "hours": "Ежедневно с 08-00 до 22-00",
    "phone": "",
    "source_url": "https://www.sevnb.ru/atms",
    "fetched_at": "2026-04-18T16:50:40+00:00"
  },
  {
    "location_type": "atm",
    "city": "Сосногорск",
    "address": "ул. Орджоникидзе, д.11: Магазин «МАГНИТ»",
    "latitude": 63.5867,
    "longitude": 53.9368,
    "hours": "С 9-00 до 21-00 ежедневно",
    "phone": "",
    "source_url": "https://www.sevnb.ru/atms",
    "fetched_at": "2026-04-18T16:50:40+00:00"
  },
  {
    "location_type": "atm",
    "city": "Сосногорск",
    "address": "6-ой микрорайон, 18/2. Доп. Офис №1/2 «СНБ» (АО)",
    "latitude": 63.5895,
    "longitude": 53.9161,
    "hours": "С 10-00 до 18-00 в будние дни, с 10-00 до 14-00 в сб",
    "phone": "",
    "source_url": "https://www.sevnb.ru/atms",
    "fetched_at": "2026-04-18T16:50:40+00:00"
  },
  {
    "location_type": "office",
    "city": "Сосногорск",
    "address": "6-ой микрорайон, 18/2. Доп. Офис №1/2 «СНБ» (АО)",
    "latitude": 63.59,
    "longitude": 53.9111,
    "hours": "по будням с 10:00 до 18:00 перерыв с 13-00 до 14-00, в субботу с 10:00 до 14:00\nвыходной: воскресенье",
    "phone": "(82149) 5-35-58",
    "source_url": "https://www.sevnb.ru/offices",
    "fetched_at": "2026-04-18T16:50:40+00:00"
  }
]
